{"restaurants" : [{"average_cost_for_two":25,"cuisines":"Thai","currency":"£","distance":"1.8 km","duration":"7 mins","id":16677052,"location":{"address":"20 Blayds Court Swinegate, Leeds LS1 4AG","city":"West Yorkshire","city_id":331,"country_id":215,"latitude":"53.7962657993","locality":"Leeds City Centre","locality_verbose":"Leeds City Centre, West Yorkshire","longitude":"-1.5434503555","zipcode":"LS1 4AG"},"name":"Chaophraya","photos_url":"https://www.zomato.com/west-yorkshire-england/chaophraya-leeds/photos?utm_source=api_basic_user&utm_medium=api&utm_campaign=v2.1#tabtop","url":"https://www.zomato.com/west-yorkshire-england/chaophraya-leeds?utm_source=api_basic_user&utm_medium=api&utm_campaign=v2.1","user_rating":{"aggregate_rating":4.5,"rating_color":"3F7E00","rating_text":"Excellent","votes":93}},{"average_cost_for_two":5,"cuisines":"Others","currency":"£","distance":"2.1 km","duration":"6 mins","id":16677778,"location":{"address":"Call Lane, Leeds LS1 7BR","city":"West Yorkshire","city_id":331,"country_id":215,"latitude":"53.7959908000","locality":"Leeds City Centre","locality_verbose":"Leeds City Centre, West Yorkshire","longitude":"-1.5402032000","zipcode":"LS1 7BR"},"name":"Humpit Hummus & Pita Bar","photos_url":"https://www.zomato.com/west-yorkshire-england/humpit-hummus-pita-bar-leeds/photos?utm_source=api_basic_user&utm_medium=api&utm_campaign=v2.1#tabtop","url":"https://www.zomato.com/west-yorkshire-england/humpit-hummus-pita-bar-leeds?utm_source=api_basic_user&utm_medium=api&utm_campaign=v2.1","user_rating":{"aggregate_rating":3.1,"rating_color":"CDD614","rating_text":"Average","votes":5}},{"average_cost_for_two":12,"cuisines":"Indian","currency":"£","distance":"1.6 km","duration":"6 mins","id":16677747,"location":{"address":"6 Mill Hill, Leeds LS1 5DQ","city":"West Yorkshire","city_id":331,"country_id":215,"latitude":"53.7954225000","locality":"Leeds City Centre","locality_verbose":"Leeds City Centre, West Yorkshire","longitude":"-1.5455390000","zipcode":"LS1 5DQ"},"name":"Bundobust","photos_url":"https://www.zomato.com/west-yorkshire-england/bundobust-leeds/photos?utm_source=api_basic_user&utm_medium=api&utm_campaign=v2.1#tabtop","url":"https://www.zomato.com/west-yorkshire-england/bundobust-leeds?utm_source=api_basic_user&utm_medium=api&utm_campaign=v2.1","user_rating":{"aggregate_rating":3.5,"rating_color":"9ACD32","rating_text":"Good","votes":18}},{"average_cost_for_two":0,"cuisines":"Japanese","currency":"£","distance":"1.5 km","duration":"7 mins","id":18511056,"location":{"address":"Victoria Gate, Leeds City Centre, West Yorkshire LS2 7AU","city":"West Yorkshire","city_id":331,"country_id":215,"latitude":"53.7982230000","locality":"Leeds City Centre","locality_verbose":"Leeds City Centre, West Yorkshire","longitude":"-1.5390930000","zipcode":"LS2 7AU"},"name":"Issho Rooftop Restaurant & Bar","photos_url":"https://www.zomato.com/west-yorkshire-england/issho-rooftop-restaurant-bar-leeds-city-centre/photos?utm_source=api_basic_user&utm_medium=api&utm_campaign=v2.1#tabtop","url":"https://www.zomato.com/west-yorkshire-england/issho-rooftop-restaurant-bar-leeds-city-centre?utm_source=api_basic_user&utm_medium=api&utm_campaign=v2.1","user_rating":{"aggregate_rating":0,"rating_color":"CBCBC8","rating_text":"Not rated","votes":2}},{"average_cost_for_two":20,"cuisines":"Indian","currency":"£","distance":"1.6 km","duration":"6 mins","id":16677768,"location":{"address":"7-8 Mill Hill, Leeds LS1 5DQ","city":"West Yorkshire","city_id":331,"country_id":215,"latitude":"53.7953182000","locality":"Leeds City Centre","locality_verbose":"Leeds City Centre, West Yorkshire","longitude":"-1.5453266000","zipcode":"LS1 5DQ"},"name":"Tharavadu","photos_url":"https://www.zomato.com/west-yorkshire-england/tharavadu-leeds/photos?utm_source=api_basic_user&utm_medium=api&utm_campaign=v2.1#tabtop","url":"https://www.zomato.com/west-yorkshire-england/tharavadu-leeds?utm_source=api_basic_user&utm_medium=api&utm_campaign=v2.1","user_rating":{"aggregate_rating":3.7,"rating_color":"9ACD32","rating_text":"Good","votes":17}},{"average_cost_for_two":12,"cuisines":"American, British","currency":"£","distance":"9.2 km","duration":"16 mins","id":16677753,"location":{"address":"Trinity Centre, Bank Street, Leeds LS1 5AT","city":"West Yorkshire","city_id":331,"country_id":215,"latitude":"53.7494483000","locality":"South Leeds","locality_verbose":"South Leeds, West Yorkshire","longitude":"-1.6031968000","zipcode":"LS1 5AT"},"name":"Meatliquor","photos_url":"https://www.zomato.com/west-yorkshire-england/meatliquor-leeds/photos?utm_source=api_basic_user&utm_medium=api&utm_campaign=v2.1#tabtop","url":"https://www.zomato.com/west-yorkshire-england/meatliquor-leeds?utm_source=api_basic_user&utm_medium=api&utm_campaign=v2.1","user_rating":{"aggregate_rating":3.2,"rating_color":"CDD614","rating_text":"Average","votes":5}},{"average_cost_for_two":0,"cuisines":"Thai, Asian","currency":"£","distance":"2.1 km","duration":"6 mins","id":17805019,"location":{"address":"Grand Arcade, Leeds City Centre, West Yorkshire LS1 6PG","city":"West Yorkshire","city_id":331,"country_id":215,"latitude":"53.8003540000","locality":"Leeds City Centre","locality_verbose":"Leeds City Centre, West Yorkshire","longitude":"-1.5401720000","zipcode":"LS1 6PG"},"name":"Zaap Thai Street Food","photos_url":"https://www.zomato.com/west-yorkshire-england/zaap-thai-street-food-leeds-city-centre/photos?utm_source=api_basic_user&utm_medium=api&utm_campaign=v2.1#tabtop","url":"https://www.zomato.com/west-yorkshire-england/zaap-thai-street-food-leeds-city-centre?utm_source=api_basic_user&utm_medium=api&utm_campaign=v2.1","user_rating":{"aggregate_rating":3.2,"rating_color":"CDD614","rating_text":"Average","votes":8}},{"average_cost_for_two":0,"cuisines":"Others","currency":"£","distance":"1.6 km","duration":"5 mins","id":16677764,"location":{"address":"43 Wade Lane, Leeds LS2 8NJ","city":"West Yorkshire","city_id":331,"country_id":215,"latitude":"53.8015034000","locality":"Leeds City Centre","locality_verbose":"Leeds City Centre, West Yorkshire","longitude":"-1.5433314000","zipcode":"LS2 8NJ"},"name":"My Thai","photos_url":"https://www.zomato.com/west-yorkshire-england/my-thai-leeds/photos?utm_source=api_basic_user&utm_medium=api&utm_campaign=v2.1#tabtop","url":"https://www.zomato.com/west-yorkshire-england/my-thai-leeds?utm_source=api_basic_user&utm_medium=api&utm_campaign=v2.1","user_rating":{"aggregate_rating":3.3,"rating_color":"CDD614","rating_text":"Average","votes":9}},{"average_cost_for_two":5,"cuisines":"Indian","currency":"£","distance":"1.8 km","duration":"7 mins","id":17842503,"location":{"address":"27 Albion St, Leeds LS1 5ER","city":"West Yorkshire","city_id":331,"country_id":215,"latitude":"53.7966805000","locality":"Leeds City Centre","locality_verbose":"Leeds City Centre, West Yorkshire","longitude":"-1.5444260000","zipcode":"LS1 5ER"},"name":"Rola Wala","photos_url":"https://www.zomato.com/west-yorkshire-england/rola-wala-leeds/photos?utm_source=api_basic_user&utm_medium=api&utm_campaign=v2.1#tabtop","url":"https://www.zomato.com/west-yorkshire-england/rola-wala-leeds?utm_source=api_basic_user&utm_medium=api&utm_campaign=v2.1","user_rating":{"aggregate_rating":3.1,"rating_color":"CDD614","rating_text":"Average","votes":9}},{"average_cost_for_two":5,"cuisines":"Italian","currency":"£","distance":"23.4 km","duration":"26 mins","id":16677112,"location":{"address":"4 Commercial St, Tadcaster LS24 8","city":"West Yorkshire","city_id":331,"country_id":215,"latitude":"53.8850560000","locality":"Tadcaster","locality_verbose":"Tadcaster, West Yorkshire","longitude":"-1.2595490000","zipcode":"LS24 8"},"name":"Tadkebab","photos_url":"https://www.zomato.com/west-yorkshire-england/tadkebab-tadcaster/photos?utm_source=api_basic_user&utm_medium=api&utm_campaign=v2.1#tabtop","url":"https://www.zomato.com/west-yorkshire-england/tadkebab-tadcaster?utm_source=api_basic_user&utm_medium=api&utm_campaign=v2.1","user_rating":{"aggregate_rating":3.4,"rating_color":"CDD614","rating_text":"Average","votes":5}},{"average_cost_for_two":0,"cuisines":"Healthy Food","currency":"£","distance":"6.0 km","duration":"11 mins","id":17990932,"location":{"address":"6 Harrogate Parade Leeds, North East Leeds, West Yorkshire LS17 6PX","city":"West Yorkshire","city_id":331,"country_id":215,"latitude":"53.8456348902","locality":"North East Leeds","locality_verbose":"North East Leeds, West Yorkshire","longitude":"-1.5332071533","zipcode":"LS17 6PX"},"name":"Filmore And Union","photos_url":"https://www.zomato.com/west-yorkshire-england/filmore-and-union-north-east-leeds/photos?utm_source=api_basic_user&utm_medium=api&utm_campaign=v2.1#tabtop","url":"https://www.zomato.com/west-yorkshire-england/filmore-and-union-north-east-leeds?utm_source=api_basic_user&utm_medium=api&utm_campaign=v2.1","user_rating":{"aggregate_rating":3.1,"rating_color":"CDD614","rating_text":"Average","votes":5}},{"average_cost_for_two":5,"cuisines":"British","currency":"£","distance":"2.5 km","duration":"9 mins","id":16677800,"location":{"address":"Marshalls Mill Holbeck, Leeds LS11 9YJ","city":"West Yorkshire","city_id":331,"country_id":215,"latitude":"53.7904757000","locality":"Leeds City Centre","locality_verbose":"Leeds City Centre, West Yorkshire","longitude":"-1.5530596000","zipcode":"LS11 9YJ"},"name":"Grub and Grog Shop","photos_url":"https://www.zomato.com/west-yorkshire-england/grub-and-grog-shop-leeds/photos?utm_source=api_basic_user&utm_medium=api&utm_campaign=v2.1#tabtop","url":"https://www.zomato.com/west-yorkshire-england/grub-and-grog-shop-leeds?utm_source=api_basic_user&utm_medium=api&utm_campaign=v2.1","user_rating":{"aggregate_rating":0,"rating_color":"CBCBC8","rating_text":"Not rated","votes":3}},{"average_cost_for_two":12,"cuisines":"Others","currency":"£","distance":"3.6 km","duration":"7 mins","id":16677779,"location":{"address":"Kirkstall Rd, Leeds","city":"West Yorkshire","city_id":331,"country_id":215,"latitude":"53.8036247000","locality":"North West Leeds","locality_verbose":"North West Leeds, West Yorkshire","longitude":"-1.5789595000","zipcode":""},"name":"Five Guys","photos_url":"https://www.zomato.com/west-yorkshire-england/five-guys-leeds/photos?utm_source=api_basic_user&utm_medium=api&utm_campaign=v2.1#tabtop","url":"https://www.zomato.com/west-yorkshire-england/five-guys-leeds?utm_source=api_basic_user&utm_medium=api&utm_campaign=v2.1","user_rating":{"aggregate_rating":0,"rating_color":"CBCBC8","rating_text":"Not rated","votes":2}},{"average_cost_for_two":5,"cuisines":"Mexican","currency":"£","distance":"0.9 km","duration":"4 mins","id":16677773,"location":{"address":"62 The Headrow, Leeds LS1 8EQ","city":"West Yorkshire","city_id":331,"country_id":215,"latitude":"53.7995822000","locality":"Leeds City Centre","locality_verbose":"Leeds City Centre, West Yorkshire","longitude":"-1.5456542000","zipcode":"LS1 8EQ"},"name":"Barburrito","photos_url":"https://www.zomato.com/west-yorkshire-england/barburrito-leeds/photos?utm_source=api_basic_user&utm_medium=api&utm_campaign=v2.1#tabtop","url":"https://www.zomato.com/west-yorkshire-england/barburrito-leeds?utm_source=api_basic_user&utm_medium=api&utm_campaign=v2.1","user_rating":{"aggregate_rating":3.1,"rating_color":"CDD614","rating_text":"Average","votes":6}},{"average_cost_for_two":12,"cuisines":"Chinese","currency":"£","distance":"16.9 km","duration":"19 mins","id":16677724,"location":{"address":"355 Tong St, Bradford BD4 9QY","city":"West Yorkshire","city_id":331,"country_id":215,"latitude":"53.7682849000","locality":"Bradford","locality_verbose":"Bradford, West Yorkshire","longitude":"-1.7124060000","zipcode":"BD4 9QY"},"name":"Bamboo Bear","photos_url":"https://www.zomato.com/west-yorkshire-england/bamboo-bear-bradford/photos?utm_source=api_basic_user&utm_medium=api&utm_campaign=v2.1#tabtop","url":"https://www.zomato.com/west-yorkshire-england/bamboo-bear-bradford?utm_source=api_basic_user&utm_medium=api&utm_campaign=v2.1","user_rating":{"aggregate_rating":3.6,"rating_color":"9ACD32","rating_text":"Good","votes":8}},{"average_cost_for_two":20,"cuisines":"Fast Food, Steak","currency":"£","distance":"29.2 km","duration":"33 mins","id":18354921,"location":{"address":"232 Kings Cross Road, Halifax, West Yorkshire HX1 3JP","city":"West Yorkshire","city_id":331,"country_id":215,"latitude":"53.7150924890","locality":"Halifax","locality_verbose":"Halifax, West Yorkshire","longitude":"-1.8816797485","zipcode":"HX1 3JP"},"name":"Frangoz","photos_url":"https://www.zomato.com/west-yorkshire-england/frangoz-halifax/photos?utm_source=api_basic_user&utm_medium=api&utm_campaign=v2.1#tabtop","url":"https://www.zomato.com/west-yorkshire-england/frangoz-halifax?utm_source=api_basic_user&utm_medium=api&utm_campaign=v2.1","user_rating":{"aggregate_rating":0,"rating_color":"CBCBC8","rating_text":"Not rated","votes":1}},{"average_cost_for_two":20,"cuisines":"Indian","currency":"£","distance":"16.8 km","duration":"17 mins","id":16677782,"location":{"address":"Aberford Rd, Garforth LS25","city":"West Yorkshire","city_id":331,"country_id":215,"latitude":"53.7969573000","locality":"East Leeds","locality_verbose":"East Leeds, West Yorkshire","longitude":"-1.3766376000","zipcode":"LS25"},"name":"Aagrah","photos_url":"https://www.zomato.com/west-yorkshire-england/aagrah-garforth/photos?utm_source=api_basic_user&utm_medium=api&utm_campaign=v2.1#tabtop","url":"https://www.zomato.com/west-yorkshire-england/aagrah-garforth?utm_source=api_basic_user&utm_medium=api&utm_campaign=v2.1","user_rating":{"aggregate_rating":0,"rating_color":"CBCBC8","rating_text":"Not rated","votes":2}},{"average_cost_for_two":5,"cuisines":"Burger, Fast Food, Pizza","currency":"£","distance":"18.5 km","duration":"30 mins","id":16677466,"location":{"address":"184 Lilycroft Rd, Bradford BD9  5AJ","city":"West Yorkshire","city_id":331,"country_id":215,"latitude":"53.8067006006","locality":"Bradford","locality_verbose":"Bradford, West Yorkshire","longitude":"-1.7837322828","zipcode":"BD9  5AJ"},"name":"Mama's Pizza","photos_url":"https://www.zomato.com/west-yorkshire-england/mamas-pizza-bradford/photos?utm_source=api_basic_user&utm_medium=api&utm_campaign=v2.1#tabtop","url":"https://www.zomato.com/west-yorkshire-england/mamas-pizza-bradford?utm_source=api_basic_user&utm_medium=api&utm_campaign=v2.1","user_rating":{"aggregate_rating":3.3,"rating_color":"CDD614","rating_text":"Average","votes":2}},{"average_cost_for_two":15,"cuisines":"British","currency":"£","distance":"2.2 km","duration":"6 mins","id":17842518,"location":{"address":"17 Duncan Street, Leeds City Centre, West Yorkshire LS1 6DL","city":"West Yorkshire","city_id":331,"country_id":215,"latitude":"53.7959643000","locality":"Leeds City Centre","locality_verbose":"Leeds City Centre, West Yorkshire","longitude":"-1.5419388000","zipcode":"LS1 6DL"},"name":"Pieminster","photos_url":"https://www.zomato.com/west-yorkshire-england/pieminster-leeds-city-centre/photos?utm_source=api_basic_user&utm_medium=api&utm_campaign=v2.1#tabtop","url":"https://www.zomato.com/west-yorkshire-england/pieminster-leeds-city-centre?utm_source=api_basic_user&utm_medium=api&utm_campaign=v2.1","user_rating":{"aggregate_rating":0,"rating_color":"CBCBC8","rating_text":"Not rated","votes":3}},{"average_cost_for_two":20,"cuisines":"Italian","currency":"£","distance":"4.0 km","duration":"8 mins","id":16677745,"location":{"address":"603 Meanwood Rd, Leeds, North West Leeds, West Yorkshire LS6 4AZ","city":"West Yorkshire","city_id":331,"country_id":215,"latitude":"53.8275697000","locality":"North West Leeds","locality_verbose":"North West Leeds, West Yorkshire","longitude":"-1.5665666000","zipcode":"LS6 4AZ"},"name":"Zucco","photos_url":"https://www.zomato.com/west-yorkshire-england/zucco-north-west-leeds/photos?utm_source=api_basic_user&utm_medium=api&utm_campaign=v2.1#tabtop","url":"https://www.zomato.com/west-yorkshire-england/zucco-north-west-leeds?utm_source=api_basic_user&utm_medium=api&utm_campaign=v2.1","user_rating":{"aggregate_rating":2.8,"rating_color":"FFBA00","rating_text":"Average","votes":4}}]}